{
  "shops": [
    {
      "name": "ASSEMBLAGES KAKIMOTO",
      "position": {"lat": 35.016144, "lng": 135.766727},
      "venueId": "571b2376498ee5843d97343a"
    },
    {
      "name": "CACAO MARKET by MarieBelle",
      "position": {"lat": 35.005126, "lng": 135.772487},
      "venueId": "52225c840493f70f68fc7192"
    },
    {
      "name": "DANDELION CHOCOLATE",
      "position": {"lat": 34.998879, "lng": 135.780253},
      "venueId": "5af1663c95d986003963c235"
    },
    {
      "name": "JEAN-PAUL HÉVIN JAPON - Kyoto",
      "position": {"lat": 35.008554, "lng": 135.765152},
      "venueId": "5811ad8338fafc8715ce5530"
    },
    {
      "name": "Kyoto Nama Chocolat Organic Tea House",
      "position": {"lat": 35.016019, "lng": 135.786283},
      "venueId": "4d60c012b19fa143dde9f9c8"
    },
    {
      "name": "Lindt Chocolat Cafe Kyoto Shijodori",
      "position": {"lat": 35.003484, "lng": 135.762187},
      "venueId": "58baa7c215fb437fcfa2e60b"
    },
    {
      "name": "Malebranche Cacao 365 Gion store",
      "position": {"lat": 35.00279, "lng": 135.775698},
      "venueId": "53803239498e54d58e7d320b"
    },
    {
      "name": "MARIEBELLE Kyoto",
      "position": {"lat": 35.008781, "lng": 135.763388},
      "venueId": "4f924337e4b0e2dc95c27126"
    },
    {
      "name": "Raw Cafe by cacao∞magic",
      "position": {"lat": 35.026724, "lng": 135.794541},
      "venueId": "51185c46e4b06e75e9c7b381"
    },
    {
      "name": "Salon de Royal Kyoto",
      "position": {"lat": 35.011423, "lng": 135.77084},
      "venueId": "510e8251e4b0470c6449b82c"
    }
  ]
}
